[
  {
    "name": "โรงพยาบาลศิริราช",
    "fullName": "โรงพยาบาลศิริราช คณะแพทยศาสตร์ศิริราชพยาบาล",
    "address": "2 ถนนวังหลัง แขวงศิริราช เขตบางกอกน้อย กรุงเทพมหานคร 10700",
    "lat": 13.7584,
    "lng": 100.4865,
    "type": "hospital"
  },
  {
    "name": "โรงพยาบาลจุฬาลงกรณ์",
    "fullName": "โรงพยาบาลจุฬาลงกรณ์ สภากาชาดไทย",
    "address": "1873 ถนนพระราม 4 แขวงปทุมวัน เขตปทุมวัน กรุงเทพมหานคร 10330",
    "lat": 13.7326,
    "lng": 100.5327,
    "type": "hospital"
  },
  {
    "name": "โรงพยาบาลรามาธิบดี",
    "fullName": "โรงพยาบาลรามาธิบดี คณะแพทยศาสตร์โรงพยาบาลรามาธิบดี",
    "address": "270 ถนนพระราม 6 แขวงทุ่งพญาไท เขตราชเทวี กรุงเทพมหานคร 10400",
    "lat": 13.7596,
    "lng": 100.5299,
    "type": "hospital"
  },
  {
    "name": "โรงพยาบาลศรีนครินทร์",
    "fullName": "โรงพยาบาลศรีนครินทร์ คณะแพทยศาสตร์ มหาวิทยาลัยขอนแก่น",
    "address": "123 ถนนมิตรภาพ ตำบลในเมือง อำเภอเมือง จังหวัดขอนแก่น 40002",
    "lat": 16.4322,
    "lng": 102.8236,
    "type": "hospital"
  },
  {
    "name": "โรงพยาบาลสงขลานครินทร์",
    "fullName": "โรงพยาบาลสงขลานครินทร์ คณะแพทยศาสตร์ มหาวิทยาลัยสงขลานครินทร์",
    "address": "15 ถนนกาญจนวนิช ตำบลหาดใหญ่ อำเภอหาดใหญ่ จังหวัดสงขลา 90110",
    "lat": 7.0089,
    "lng": 100.4969,
    "type": "hospital"
  },
  {
    "name": "โรงพยาบาลมหาราชนครเชียงใหม่",
    "fullName": "โรงพยาบาลมหาราชนครเชียงใหม่ คณะแพทยศาสตร์ มหาวิทยาลัยเชียงใหม่",
    "address": "110 ถนนอินทวโรรส ตำบลศรีภูมิ อำเภอเมือง จังหวัดเชียงใหม่ 50200",
    "lat": 18.7956,
    "lng": 98.9664,
    "type": "hospital"
  },
  {
    "name": "โรงพยาบาลบำรุงราษฎร์",
    "fullName": "โรงพยาบาลบำรุงราษฎร์",
    "address": "33 ถนนสุขุมวิท 3 แขวงคลองเตยเหนือ เขตวัฒนา กรุงเทพมหานคร 10110",
    "lat": 13.7378,
    "lng": 100.5596,
    "type": "hospital"
  },
  {
    "name": "โรงพยาบาลสมิติเวช",
    "fullName": "โรงพยาบาลสมิติเวช ศรีนครินทร์",
    "address": "488 ถนนศรีนครินทร์ แขวงสวนหลวง เขตสวนหลวง กรุงเทพมหานคร 10250",
    "lat": 13.7242,
    "lng": 100.6436,
    "type": "hospital"
  },
  {
    "name": "โรงพยาบาลกรุงเทพ",
    "fullName": "โรงพยาบาลกรุงเทพ",
    "address": "2 ซอยศูนย์วิจัย 7 ถนนเพชรบุรีตัดใหม่ แขวงบางกะปิ เขตห้วยขวาง กรุงเทพมหานคร 10310",
    "lat": 13.7563,
    "lng": 100.5746,
    "type": "hospital"
  },
  {
    "name": "โรงพยาบาลเซนต์หลุยส์",
    "fullName": "โรงพยาบาลเซนต์หลุยส์",
    "address": "27 ถนนสาทรใต้ แขวงยานนาวา เขตสาทร กรุงเทพมหานคร 10120",
    "lat": 13.7194,
    "lng": 100.5271,
    "type": "hospital"
  },
  {
    "name": "โรงพยาบาลพญาไท 2",
    "fullName": "โรงพยาบาลพญาไท 2",
    "address": "943 ถนนพหลโยธิน แขวงพญาไท เขตพญาไท กรุงเทพมหานคร 10400",
    "lat": 13.7781,
    "lng": 100.5447,
    "type": "hospital"
  },
  {
    "name": "โรงพยาบาลวิชัยเวช",
    "fullName": "โรงพยาบาลวิชัยเวช อารีย์",
    "address": "491/1 ถนนพหลโยธิน แขวงสามเสนใน เขตพญาไท กรุงเทพมหานคร 10400",
    "lat": 13.7826,
    "lng": 100.5454,
    "type": "hospital"
  },
  {
    "name": "โรงพยาบาลเปาโล",
    "fullName": "โรงพยาบาลเปาโล โชคชัย 4",
    "address": "670/1 ถนนลาดพร้าว แขวงจอมพล เขตจตุจักร กรุงเทพมหานคร 10900",
    "lat": 13.8058,
    "lng": 100.5615,
    "type": "hospital"
  },
  {
    "name": "โรงพยาบาลราชวิถี",
    "fullName": "โรงพยาบาลราชวิถี",
    "address": "2 ถนนพญาไท แขวงทุ่งพญาไท เขตราชเทวี กรุงเทพมหานคร 10400",
    "lat": 13.7584,
    "lng": 100.5324,
    "type": "hospital"
  },
  {
    "name": "โรงพยาบาลพระมงกุฎเกล้า",
    "fullName": "โรงพยาบาลพระมงกุฎเกล้า",
    "address": "315 ถนนราชวิถี แขวงทุ่งพญาไท เขตราชเทวี กรุงเทพมหานคร 10400",
    "lat": 13.7641,
    "lng": 100.5367,
    "type": "hospital"
  }
]
